{
    "field": "species_first_auth", 
    "nodes": [
        {
            "index": 1, 
            "geometry": {
                "type": "Point", 
                "coordinates": [
                    66.39159363, 
                    33.98299275
                ]
            }, 
            "properties": {
                "name": "Afghanistan", 
                "nameofficial": "Islamic Republic of Afghanistan"
            }, 
            "score": 7, 
            "type": "Feature", 
            "id": 1
        }, 
        {
            "index": 2, 
            "geometry": {
                "type": "Point", 
                "coordinates": [
                    19.87170014, 
                    41.00017358
                ]
            }, 
            "properties": {
                "name": "Albania", 
                "nameofficial": "Republic of Albania"
            }, 
            "score": 6, 
            "type": "Feature", 
            "id": 2
        }, 
        {
            "index": 3, 
            "geometry": {
                "type": "Point", 
                "coordinates": [
                    3.19771194, 
                    27.8986169
                ]
            }, 
            "properties": {
                "name": "Algeria", 
                "nameofficial": "People\u2019s Democratic Republic of Algeria"
            }, 
            "score": 9, 
            "type": "Feature", 
            "id": 3
        }, 
        {
            "index": 4, 
            "geometry": {
                "type": "Point", 
                "coordinates": [
                    1.5520134, 
                    42.54057088
                ]
            }, 
            "properties": {
                "name": "Andorra", 
                "nameofficial": "Principality of Andorra"
            }, 
            "score": 6, 
            "type": "Feature", 
            "id": 4
        }, 
        {
            "index": 5, 
            "geometry": {
                "type": "Point", 
                "coordinates": [
                    16.70933622, 
                    -12.16469683
                ]
            }, 
            "properties": {
                "name": "Angola", 
                "nameofficial": "Republic of Angola"
            }, 
            "score": 5, 
            "type": "Feature", 
            "id": 5
        }, 
        {
            "index": 6, 
            "geometry": {
                "type": "Point", 
                "coordinates": [
                    -61.42014426, 
                    17.48060423
                ]
            }, 
            "properties": {
                "name": "Antigua And Barbuda", 
                "nameofficial": "Antigua And Barbuda"
            }, 
            "score": 2, 
            "type": "Feature", 
            "id": 6
        }, 
        {
            "index": 7, 
            "geometry": {
                "type": "Point", 
                "coordinates": [
                    -64.97897469, 
                    -38.01529308
                ]
            }, 
            "properties": {
                "name": "Argentina", 
                "nameofficial": "Argentine Republic"
            }, 
            "score": 8, 
            "type": "Feature", 
            "id": 7
        }, 
        {
            "index": 8, 
            "geometry": {
                "type": "Point", 
                "coordinates": [
                    45.01072318, 
                    40.13475528
                ]
            }, 
            "properties": {
                "name": "Armenia", 
                "nameofficial": "Republic of Armenia"
            }, 
            "score": 9, 
            "type": "Feature", 
            "id": 8
        }, 
        {
            "index": 9, 
            "geometry": {
                "type": "Point", 
                "coordinates": [
                    133.55540944, 
                    -26.29594646
                ]
            }, 
            "properties": {
                "name": "Australia", 
                "nameofficial": "Australia"
            }, 
            "score": 10, 
            "type": "Feature", 
            "id": 9
        }, 
        {
            "index": 10, 
            "geometry": {
                "type": "Point", 
                "coordinates": [
                    13.18776731, 
                    47.63125476
                ]
            }, 
            "properties": {
                "name": "Austria", 
                "nameofficial": "Republic of Austria"
            }, 
            "score": 10, 
            "type": "Feature", 
            "id": 10
        }, 
        {
            "index": 11, 
            "geometry": {
                "type": "Point", 
                "coordinates": [
                    47.46706372, 
                    40.35321757
                ]
            }, 
            "properties": {
                "name": "Azerbaijan", 
                "nameofficial": "Republic of Azerbaijan"
            }, 
            "score": 8, 
            "type": "Feature", 
            "id": 11
        }, 
        {
            "index": 12, 
            "geometry": {
                "type": "Point", 
                "coordinates": [
                    -77.68192453, 
                    24.45991732
                ]
            }, 
            "properties": {
                "name": "Bahamas", 
                "nameofficial": "Commonwealth of the Bahamas"
            }, 
            "score": 2, 
            "type": "Feature", 
            "id": 12
        }, 
        {
            "index": 13, 
            "geometry": {
                "type": "Point", 
                "coordinates": [
                    50.65932354, 
                    25.90740996
                ]
            }, 
            "properties": {
                "name": "Bahrain", 
                "nameofficial": "Kingdom of Bahrain"
            }, 
            "score": 1, 
            "type": "Feature", 
            "id": 13
        }, 
        {
            "index": 14, 
            "geometry": {
                "type": "Point", 
                "coordinates": [
                    90.49915527, 
                    24.08273251
                ]
            }, 
            "properties": {
                "name": "Bangladesh", 
                "nameofficial": "People\u2019s Republic of Bangladesh"
            }, 
            "score": 4, 
            "type": "Feature", 
            "id": 14
        }, 
        {
            "index": 15, 
            "geometry": {
                "type": "Point", 
                "coordinates": [
                    -59.543196, 
                    13.19383077
                ]
            }, 
            "properties": {
                "name": "Barbados", 
                "nameofficial": "Barbados"
            }, 
            "score": 2, 
            "type": "Feature", 
            "id": 15
        }, 
        {
            "index": 16, 
            "geometry": {
                "type": "Point", 
                "coordinates": [
                    27.953389, 
                    53.58628747
                ]
            }, 
            "properties": {
                "name": "Belarus", 
                "nameofficial": "Republic of Belarus"
            }, 
            "score": 5, 
            "type": "Feature", 
            "id": 16
        }, 
        {
            "index": 17, 
            "geometry": {
                "type": "Point", 
                "coordinates": [
                    4.469936, 
                    50.49593874
                ]
            }, 
            "properties": {
                "name": "Belgium", 
                "nameofficial": "Kingdom of Belgium"
            }, 
            "score": 9, 
            "type": "Feature", 
            "id": 17
        }, 
        {
            "index": 18, 
            "geometry": {
                "type": "Point", 
                "coordinates": [
                    -88.01424956, 
                    17.21153631
                ]
            }, 
            "properties": {
                "name": "Belize", 
                "nameofficial": "Belize"
            }, 
            "score": 2, 
            "type": "Feature", 
            "id": 18
        }, 
        {
            "index": 19, 
            "geometry": {
                "type": "Point", 
                "coordinates": [
                    2.29386134, 
                    9.37180859
                ]
            }, 
            "properties": {
                "name": "Benin", 
                "nameofficial": "Republic of Benin"
            }, 
            "score": 2, 
            "type": "Feature", 
            "id": 19
        }, 
        {
            "index": 20, 
            "geometry": {
                "type": "Point", 
                "coordinates": [
                    90.433603, 
                    27.50752756
                ]
            }, 
            "properties": {
                "name": "Bhutan", 
                "nameofficial": "Kingdom of Bhutan"
            }, 
            "score": 5, 
            "type": "Feature", 
            "id": 20
        }, 
        {
            "index": 21, 
            "geometry": {
                "type": "Point", 
                "coordinates": [
                    17.8164091, 
                    44.00040856
                ]
            }, 
            "properties": {
                "name": "Bosnia And Herzegovina", 
                "nameofficial": "Bosnia And Herzegovina"
            }, 
            "score": 3, 
            "type": "Feature", 
            "id": 21
        }, 
        {
            "index": 22, 
            "geometry": {
                "type": "Point", 
                "coordinates": [
                    24.22344422, 
                    -22.18279485
                ]
            }, 
            "properties": {
                "name": "Botswana", 
                "nameofficial": "Republic of Botswana"
            }, 
            "score": 2, 
            "type": "Feature", 
            "id": 22
        }, 
        {
            "index": 23, 
            "geometry": {
                "type": "Point", 
                "coordinates": [
                    -53.331526, 
                    -11.80965046
                ]
            }, 
            "properties": {
                "name": "Brazil", 
                "nameofficial": "Federative Republic of Brazil"
            }, 
            "score": 8, 
            "type": "Feature", 
            "id": 23
        }, 
        {
            "index": 25, 
            "geometry": {
                "type": "Point", 
                "coordinates": [
                    25.485832, 
                    42.70160678
                ]
            }, 
            "properties": {
                "name": "Bulgaria", 
                "nameofficial": "Republic of Bulgaria"
            }, 
            "score": 10, 
            "type": "Feature", 
            "id": 25
        }, 
        {
            "index": 26, 
            "geometry": {
                "type": "Point", 
                "coordinates": [
                    -1.561591, 
                    12.22492458
                ]
            }, 
            "properties": {
                "name": "Burkina Faso", 
                "nameofficial": "Burkina Faso"
            }, 
            "score": 2, 
            "type": "Feature", 
            "id": 26
        }, 
        {
            "index": 27, 
            "geometry": {
                "type": "Point", 
                "coordinates": [
                    29.88592902, 
                    -3.40499707
                ]
            }, 
            "properties": {
                "name": "Burundi", 
                "nameofficial": "Republic of Burundi"
            }, 
            "score": 4, 
            "type": "Feature", 
            "id": 27
        }, 
        {
            "index": 29, 
            "geometry": {
                "type": "Point", 
                "coordinates": [
                    12.72825915, 
                    7.38622543
                ]
            }, 
            "properties": {
                "name": "Cameroon", 
                "nameofficial": "Republic of Cameroon"
            }, 
            "score": 5, 
            "type": "Feature", 
            "id": 29
        }, 
        {
            "index": 30, 
            "geometry": {
                "type": "Point", 
                "coordinates": [
                    -106.6983315, 
                    60.36196817
                ]
            }, 
            "properties": {
                "name": "Canada", 
                "nameofficial": "Canada"
            }, 
            "score": 8, 
            "type": "Feature", 
            "id": 30
        }, 
        {
            "index": 32, 
            "geometry": {
                "type": "Point", 
                "coordinates": [
                    20.64281514, 
                    6.8254183
                ]
            }, 
            "properties": {
                "name": "Central African Republic", 
                "nameofficial": "Central African Republic"
            }, 
            "score": 3, 
            "type": "Feature", 
            "id": 32
        }, 
        {
            "index": 33, 
            "geometry": {
                "type": "Point", 
                "coordinates": [
                    18.78714064, 
                    14.80342407
                ]
            }, 
            "properties": {
                "name": "Chad", 
                "nameofficial": "Republic of Chad"
            }, 
            "score": 2, 
            "type": "Feature", 
            "id": 33
        }, 
        {
            "index": 34, 
            "geometry": {
                "type": "Point", 
                "coordinates": [
                    -71.40014474, 
                    -38.0176079
                ]
            }, 
            "properties": {
                "name": "Chile", 
                "nameofficial": "Republic of Chile"
            }, 
            "score": 8, 
            "type": "Feature", 
            "id": 34
        }, 
        {
            "index": 35, 
            "geometry": {
                "type": "Point", 
                "coordinates": [
                    103.55819197, 
                    36.7145744
                ]
            }, 
            "properties": {
                "name": "China", 
                "nameofficial": "People's Republic of China"
            }, 
            "score": 14, 
            "type": "Feature", 
            "id": 35
        }, 
        {
            "index": 36, 
            "geometry": {
                "type": "Point", 
                "coordinates": [
                    -73.53927436, 
                    3.6818232
                ]
            }, 
            "properties": {
                "name": "Colombia", 
                "nameofficial": "Republic of Colombia"
            }, 
            "score": 9, 
            "type": "Feature", 
            "id": 36
        }, 
        {
            "index": 38, 
            "geometry": {
                "type": "Point", 
                "coordinates": [
                    15.6903319, 
                    -0.68967806
                ]
            }, 
            "properties": {
                "name": "Congo", 
                "nameofficial": "Republic of the Congo"
            }, 
            "score": 3, 
            "type": "Feature", 
            "id": 38
        }, 
        {
            "index": 39, 
            "geometry": {
                "type": "Point", 
                "coordinates": [
                    -84.09949534, 
                    9.98427463
                ]
            }, 
            "properties": {
                "name": "Costa Rica", 
                "nameofficial": "Republic of Costa Rica"
            }, 
            "score": 5, 
            "type": "Feature", 
            "id": 39
        }, 
        {
            "index": 40, 
            "geometry": {
                "type": "Point", 
                "coordinates": [
                    16.29039507, 
                    44.81372482
                ]
            }, 
            "properties": {
                "name": "Croatia", 
                "nameofficial": "Republic of Croatia"
            }, 
            "score": 7, 
            "type": "Feature", 
            "id": 40
        }, 
        {
            "index": 41, 
            "geometry": {
                "type": "Point", 
                "coordinates": [
                    -79.00064743, 
                    21.54513189
                ]
            }, 
            "properties": {
                "name": "Cuba", 
                "nameofficial": "Republic of Cuba"
            }, 
            "score": 5, 
            "type": "Feature", 
            "id": 41
        }, 
        {
            "index": 42, 
            "geometry": {
                "type": "Point", 
                "coordinates": [
                    33.429861, 
                    35.12450768
                ]
            }, 
            "properties": {
                "name": "Cyprus", 
                "nameofficial": "Republic of Cyprus"
            }, 
            "score": 7, 
            "type": "Feature", 
            "id": 42
        }, 
        {
            "index": 43, 
            "geometry": {
                "type": "Point", 
                "coordinates": [
                    15.53888197, 
                    49.76026136
                ]
            }, 
            "properties": {
                "name": "Czech Republic", 
                "nameofficial": "Czech Republic"
            }, 
            "score": 9, 
            "type": "Feature", 
            "id": 43
        }, 
        {
            "index": 44, 
            "geometry": {
                "type": "Point", 
                "coordinates": [
                    -5.49214636, 
                    7.59684148
                ]
            }, 
            "properties": {
                "name": "Cote Divoire", 
                "nameofficial": "Republic of C\u00f4te D'Ivoire"
            }, 
            "score": 3, 
            "type": "Feature", 
            "id": 44
        }, 
        {
            "index": 45, 
            "geometry": {
                "type": "Point", 
                "coordinates": [
                    9.41938953, 
                    54.71794021
                ]
            }, 
            "properties": {
                "name": "Denmark", 
                "nameofficial": "Kingdom of Denmark"
            }, 
            "score": 10, 
            "type": "Feature", 
            "id": 45
        }, 
        {
            "index": 47, 
            "geometry": {
                "type": "Point", 
                "coordinates": [
                    -61.370974, 
                    15.41473963
                ]
            }, 
            "properties": {
                "name": "Dominica", 
                "nameofficial": "Commonwealth of Dominica"
            }, 
            "score": 1, 
            "type": "Feature", 
            "id": 47
        }, 
        {
            "index": 48, 
            "geometry": {
                "type": "Point", 
                "coordinates": [
                    -70.162649, 
                    18.73076761
                ]
            }, 
            "properties": {
                "name": "Dominican Republic", 
                "nameofficial": "Dominican Republic"
            }, 
            "score": 5, 
            "type": "Feature", 
            "id": 48
        }, 
        {
            "index": 49, 
            "geometry": {
                "type": "Point", 
                "coordinates": [
                    -78.55693916, 
                    -1.22919037
                ]
            }, 
            "properties": {
                "name": "Ecuador", 
                "nameofficial": "Republic of Ecuador"
            }, 
            "score": 5, 
            "type": "Feature", 
            "id": 49
        }, 
        {
            "index": 50, 
            "geometry": {
                "type": "Point", 
                "coordinates": [
                    30.8025, 
                    26.71650873
                ]
            }, 
            "properties": {
                "name": "Egypt", 
                "nameofficial": "Arab Republic of Egypt"
            }, 
            "score": 5, 
            "type": "Feature", 
            "id": 50
        }, 
        {
            "index": 51, 
            "geometry": {
                "type": "Point", 
                "coordinates": [
                    -88.896528, 
                    13.79043561
                ]
            }, 
            "properties": {
                "name": "El Salvador", 
                "nameofficial": "Republic of El Salvador"
            }, 
            "score": 3, 
            "type": "Feature", 
            "id": 51
        }, 
        {
            "index": 52, 
            "geometry": {
                "type": "Point", 
                "coordinates": [
                    10.267897, 
                    1.65068442
                ]
            }, 
            "properties": {
                "name": "Equatorial Guinea", 
                "nameofficial": "Republic of Equatorial Guinea"
            }, 
            "score": 5, 
            "type": "Feature", 
            "id": 52
        }, 
        {
            "index": 53, 
            "geometry": {
                "type": "Point", 
                "coordinates": [
                    39.61204792, 
                    15.21227764
                ]
            }, 
            "properties": {
                "name": "Eritrea", 
                "nameofficial": "State of Eritrea"
            }, 
            "score": 3, 
            "type": "Feature", 
            "id": 53
        }, 
        {
            "index": 54, 
            "geometry": {
                "type": "Point", 
                "coordinates": [
                    25.38165099, 
                    58.74041141
                ]
            }, 
            "properties": {
                "name": "Estonia", 
                "nameofficial": "Republic of Estonia"
            }, 
            "score": 9, 
            "type": "Feature", 
            "id": 54
        }, 
        {
            "index": 55, 
            "geometry": {
                "type": "Point", 
                "coordinates": [
                    39.84148164, 
                    9.10727589
                ]
            }, 
            "properties": {
                "name": "Ethiopia", 
                "nameofficial": "Federal Democratic Republic of Ethiopia"
            }, 
            "score": 7, 
            "type": "Feature", 
            "id": 55
        }, 
        {
            "index": 56, 
            "geometry": {
                "type": "Point", 
                "coordinates": [
                    178.065036, 
                    -17.71219757
                ]
            }, 
            "properties": {
                "name": "Fiji", 
                "nameofficial": "Republic of Fiji"
            }, 
            "score": 3, 
            "type": "Feature", 
            "id": 56
        }, 
        {
            "index": 57, 
            "geometry": {
                "type": "Point", 
                "coordinates": [
                    26.36339137, 
                    64.69610892
                ]
            }, 
            "properties": {
                "name": "Finland", 
                "nameofficial": "Republic of Finland"
            }, 
            "score": 9, 
            "type": "Feature", 
            "id": 57
        }, 
        {
            "index": 58, 
            "geometry": {
                "type": "Point", 
                "coordinates": [
                    2.60926281, 
                    46.48372145
                ]
            }, 
            "properties": {
                "name": "France", 
                "nameofficial": "French Republic"
            }, 
            "score": 10, 
            "type": "Feature", 
            "id": 58
        }, 
        {
            "index": 59, 
            "geometry": {
                "type": "Point", 
                "coordinates": [
                    11.43916591, 
                    -0.43426435
                ]
            }, 
            "properties": {
                "name": "Gabon", 
                "nameofficial": "Gabonese Republic"
            }, 
            "score": 1, 
            "type": "Feature", 
            "id": 59
        }, 
        {
            "index": 60, 
            "geometry": {
                "type": "Point", 
                "coordinates": [
                    -15.35956748, 
                    13.15921146
                ]
            }, 
            "properties": {
                "name": "Gambia", 
                "nameofficial": "Republic of The Gambia"
            }, 
            "score": 1, 
            "type": "Feature", 
            "id": 60
        }, 
        {
            "index": 61, 
            "geometry": {
                "type": "Point", 
                "coordinates": [
                    44.17329916, 
                    41.82754301
                ]
            }, 
            "properties": {
                "name": "Georgia", 
                "nameofficial": "Georgia"
            }, 
            "score": 9, 
            "type": "Feature", 
            "id": 61
        }, 
        {
            "index": 62, 
            "geometry": {
                "type": "Point", 
                "coordinates": [
                    10.97887975, 
                    50.82871201
                ]
            }, 
            "properties": {
                "name": "Germany", 
                "nameofficial": "Federal Republic of Germany"
            }, 
            "score": 11, 
            "type": "Feature", 
            "id": 62
        }, 
        {
            "index": 63, 
            "geometry": {
                "type": "Point", 
                "coordinates": [
                    -1.29234904, 
                    7.69154199
                ]
            }, 
            "properties": {
                "name": "Ghana", 
                "nameofficial": "Republic of Ghana"
            }, 
            "score": 3, 
            "type": "Feature", 
            "id": 63
        }, 
        {
            "index": 64, 
            "geometry": {
                "type": "Point", 
                "coordinates": [
                    24.53794505, 
                    38.52254746
                ]
            }, 
            "properties": {
                "name": "Greece", 
                "nameofficial": "Hellenic Republic"
            }, 
            "score": 9, 
            "type": "Feature", 
            "id": 64
        }, 
        {
            "index": 66, 
            "geometry": {
                "type": "Point", 
                "coordinates": [
                    -89.96707712, 
                    15.72598421
                ]
            }, 
            "properties": {
                "name": "Guatemala", 
                "nameofficial": "Republic of Guatemala"
            }, 
            "score": 5, 
            "type": "Feature", 
            "id": 66
        }, 
        {
            "index": 67, 
            "geometry": {
                "type": "Point", 
                "coordinates": [
                    -11.31711839, 
                    9.94301472
                ]
            }, 
            "properties": {
                "name": "Guinea", 
                "nameofficial": "Republic of Guinea"
            }, 
            "score": 4, 
            "type": "Feature", 
            "id": 67
        }, 
        {
            "index": 68, 
            "geometry": {
                "type": "Point", 
                "coordinates": [
                    -15.180407, 
                    11.80050682
                ]
            }, 
            "properties": {
                "name": "Guinea-Bissau", 
                "nameofficial": "Republic of Guinea-Bissau"
            }, 
            "score": 2, 
            "type": "Feature", 
            "id": 68
        }, 
        {
            "index": 69, 
            "geometry": {
                "type": "Point", 
                "coordinates": [
                    -58.72692293, 
                    4.47957059
                ]
            }, 
            "properties": {
                "name": "Guyana", 
                "nameofficial": "Republic of Guyana"
            }, 
            "score": 3, 
            "type": "Feature", 
            "id": 69
        }, 
        {
            "index": 70, 
            "geometry": {
                "type": "Point", 
                "coordinates": [
                    -72.79607526, 
                    19.07430861
                ]
            }, 
            "properties": {
                "name": "Haiti", 
                "nameofficial": "Republic of Haiti"
            }, 
            "score": 4, 
            "type": "Feature", 
            "id": 70
        }, 
        {
            "index": 71, 
            "geometry": {
                "type": "Point", 
                "coordinates": [
                    -87.01643713, 
                    14.64994423
                ]
            }, 
            "properties": {
                "name": "Honduras", 
                "nameofficial": "Republic of Honduras"
            }, 
            "score": 4, 
            "type": "Feature", 
            "id": 71
        }, 
        {
            "index": 72, 
            "geometry": {
                "type": "Point", 
                "coordinates": [
                    19.35499657, 
                    46.97670384
                ]
            }, 
            "properties": {
                "name": "Hungary", 
                "nameofficial": "Republic of Hungary"
            }, 
            "score": 9, 
            "type": "Feature", 
            "id": 72
        }, 
        {
            "index": 73, 
            "geometry": {
                "type": "Point", 
                "coordinates": [
                    -18.57038755, 
                    64.99294495
                ]
            }, 
            "properties": {
                "name": "Iceland", 
                "nameofficial": "Republic of Iceland"
            }, 
            "score": 6, 
            "type": "Feature", 
            "id": 73
        }, 
        {
            "index": 74, 
            "geometry": {
                "type": "Point", 
                "coordinates": [
                    78.50146222, 
                    20.46549519
                ]
            }, 
            "properties": {
                "name": "India", 
                "nameofficial": "Republic of India"
            }, 
            "score": 9, 
            "type": "Feature", 
            "id": 74
        }, 
        {
            "index": 75, 
            "geometry": {
                "type": "Point", 
                "coordinates": [
                    121.18329789, 
                    -2.4622968
                ]
            }, 
            "properties": {
                "name": "Indonesia", 
                "nameofficial": "Republic of Indonesia"
            }, 
            "score": 8, 
            "type": "Feature", 
            "id": 75
        }, 
        {
            "index": 76, 
            "geometry": {
                "type": "Point", 
                "coordinates": [
                    43.19590056, 
                    32.90170182
                ]
            }, 
            "properties": {
                "name": "Iraq", 
                "nameofficial": "Republic of Iraq"
            }, 
            "score": 8, 
            "type": "Feature", 
            "id": 76
        }, 
        {
            "index": 77, 
            "geometry": {
                "type": "Point", 
                "coordinates": [
                    -8.21092302, 
                    53.10101628
                ]
            }, 
            "properties": {
                "name": "Ireland", 
                "nameofficial": "Ireland"
            }, 
            "score": 8, 
            "type": "Feature", 
            "id": 77
        }, 
        {
            "index": 78, 
            "geometry": {
                "type": "Point", 
                "coordinates": [
                    34.91753797, 
                    30.85883075
                ]
            }, 
            "properties": {
                "name": "Israel", 
                "nameofficial": "State of Israel"
            }, 
            "score": 7, 
            "type": "Feature", 
            "id": 78
        }, 
        {
            "index": 79, 
            "geometry": {
                "type": "Point", 
                "coordinates": [
                    12.67725128, 
                    41.7781084
                ]
            }, 
            "properties": {
                "name": "Italy", 
                "nameofficial": "Republic of Italy"
            }, 
            "score": 9, 
            "type": "Feature", 
            "id": 79
        }, 
        {
            "index": 80, 
            "geometry": {
                "type": "Point", 
                "coordinates": [
                    -77.297506, 
                    18.10838487
                ]
            }, 
            "properties": {
                "name": "Jamaica", 
                "nameofficial": "Jamaica"
            }, 
            "score": 3, 
            "type": "Feature", 
            "id": 80
        }, 
        {
            "index": 81, 
            "geometry": {
                "type": "Point", 
                "coordinates": [
                    137.67066061, 
                    37.51848822
                ]
            }, 
            "properties": {
                "name": "Japan", 
                "nameofficial": "Japan"
            }, 
            "score": 14, 
            "type": "Feature", 
            "id": 81
        }, 
        {
            "index": 82, 
            "geometry": {
                "type": "Point", 
                "coordinates": [
                    36.3757551, 
                    31.31616588
                ]
            }, 
            "properties": {
                "name": "Jordan", 
                "nameofficial": "Hashemite Kingdom of Jordan"
            }, 
            "score": 6, 
            "type": "Feature", 
            "id": 82
        }, 
        {
            "index": 83, 
            "geometry": {
                "type": "Point", 
                "coordinates": [
                    68.81334444, 
                    45.38592596
                ]
            }, 
            "properties": {
                "name": "Kazakhstan", 
                "nameofficial": "Republic of Kazakhstan"
            }, 
            "score": 6, 
            "type": "Feature", 
            "id": 83
        }, 
        {
            "index": 84, 
            "geometry": {
                "type": "Point", 
                "coordinates": [
                    37.97212297, 
                    0.19582452
                ]
            }, 
            "properties": {
                "name": "Kenya", 
                "nameofficial": "Republic of Kenya"
            }, 
            "score": 7, 
            "type": "Feature", 
            "id": 84
        }, 
        {
            "index": 85, 
            "geometry": {
                "type": "Point", 
                "coordinates": [
                    -157.3625931, 
                    1.87085244
                ]
            }, 
            "properties": {
                "name": "Kiribati", 
                "nameofficial": "Republic of Kiribati"
            }, 
            "score": 1, 
            "type": "Feature", 
            "id": 85
        }, 
        {
            "index": 86, 
            "geometry": {
                "type": "Point", 
                "coordinates": [
                    47.71798405, 
                    29.43253341
                ]
            }, 
            "properties": {
                "name": "Kuwait", 
                "nameofficial": "State of Kuwait"
            }, 
            "score": 2, 
            "type": "Feature", 
            "id": 86
        }, 
        {
            "index": 87, 
            "geometry": {
                "type": "Point", 
                "coordinates": [
                    74.25524574, 
                    41.11509878
                ]
            }, 
            "properties": {
                "name": "Kyrgyzstan", 
                "nameofficial": "Kyrgyz Republic"
            }, 
            "score": 5, 
            "type": "Feature", 
            "id": 87
        }, 
        {
            "index": 88, 
            "geometry": {
                "type": "Point", 
                "coordinates": [
                    103.61611347, 
                    17.76075593
                ]
            }, 
            "properties": {
                "name": "Laos", 
                "nameofficial": "Lao People'S Democratic Republic"
            }, 
            "score": 4, 
            "type": "Feature", 
            "id": 88
        }, 
        {
            "index": 89, 
            "geometry": {
                "type": "Point", 
                "coordinates": [
                    24.54826936, 
                    56.86697515
                ]
            }, 
            "properties": {
                "name": "Latvia", 
                "nameofficial": "Republic of Latvia"
            }, 
            "score": 3, 
            "type": "Feature", 
            "id": 89
        }, 
        {
            "index": 90, 
            "geometry": {
                "type": "Point", 
                "coordinates": [
                    35.66454309, 
                    34.08249284
                ]
            }, 
            "properties": {
                "name": "Lebanon", 
                "nameofficial": "Lebanese Republic"
            }, 
            "score": 9, 
            "type": "Feature", 
            "id": 90
        }, 
        {
            "index": 91, 
            "geometry": {
                "type": "Point", 
                "coordinates": [
                    28.233612, 
                    -29.60303205
                ]
            }, 
            "properties": {
                "name": "Lesotho", 
                "nameofficial": "Kingdom of Lesotho"
            }, 
            "score": 3, 
            "type": "Feature", 
            "id": 91
        }, 
        {
            "index": 92, 
            "geometry": {
                "type": "Point", 
                "coordinates": [
                    -9.39103485, 
                    6.44154681
                ]
            }, 
            "properties": {
                "name": "Liberia", 
                "nameofficial": "Republic of Liberia"
            }, 
            "score": 2, 
            "type": "Feature", 
            "id": 92
        }, 
        {
            "index": 93, 
            "geometry": {
                "type": "Point", 
                "coordinates": [
                    18.19513987, 
                    27.06902914
                ]
            }, 
            "properties": {
                "name": "Libya", 
                "nameofficial": "Socialist People\u2019s Libyan Arab Jamahiriya"
            }, 
            "score": 7, 
            "type": "Feature", 
            "id": 93
        }, 
        {
            "index": 94, 
            "geometry": {
                "type": "Point", 
                "coordinates": [
                    9.555377, 
                    47.16587383
                ]
            }, 
            "properties": {
                "name": "Liechtenstein", 
                "nameofficial": "Principality of Liechtenstein"
            }, 
            "score": 2, 
            "type": "Feature", 
            "id": 94
        }, 
        {
            "index": 95, 
            "geometry": {
                "type": "Point", 
                "coordinates": [
                    23.80987587, 
                    55.25095948
                ]
            }, 
            "properties": {
                "name": "Lithuania", 
                "nameofficial": "Republic of Lithuania"
            }, 
            "score": 6, 
            "type": "Feature", 
            "id": 95
        }, 
        {
            "index": 96, 
            "geometry": {
                "type": "Point", 
                "coordinates": [
                    6.129587, 
                    49.81327712
                ]
            }, 
            "properties": {
                "name": "Luxembourg", 
                "nameofficial": "Grand Duchy of Luxembourg"
            }, 
            "score": 9, 
            "type": "Feature", 
            "id": 96
        }, 
        {
            "index": 97, 
            "geometry": {
                "type": "Point", 
                "coordinates": [
                    46.97898228, 
                    -19.79858543
                ]
            }, 
            "properties": {
                "name": "Madagascar", 
                "nameofficial": "Republic of Madagascar"
            }, 
            "score": 5, 
            "type": "Feature", 
            "id": 97
        }, 
        {
            "index": 98, 
            "geometry": {
                "type": "Point", 
                "coordinates": [
                    34.14223524, 
                    -12.48684092
                ]
            }, 
            "properties": {
                "name": "Malawi", 
                "nameofficial": "Republic of Malawi"
            }, 
            "score": 2, 
            "type": "Feature", 
            "id": 98
        }, 
        {
            "index": 99, 
            "geometry": {
                "type": "Point", 
                "coordinates": [
                    106.5460905, 
                    4.97345793
                ]
            }, 
            "properties": {
                "name": "Malaysia", 
                "nameofficial": "Malaysia"
            }, 
            "score": 5, 
            "type": "Feature", 
            "id": 99
        }, 
        {
            "index": 100, 
            "geometry": {
                "type": "Point", 
                "coordinates": [
                    73.13373313, 
                    -0.64224221
                ]
            }, 
            "properties": {
                "name": "Maldives", 
                "nameofficial": "Republic of Maldives"
            }, 
            "score": 1, 
            "type": "Feature", 
            "id": 100
        }, 
        {
            "index": 101, 
            "geometry": {
                "type": "Point", 
                "coordinates": [
                    -1.9636873, 
                    17.69385811
                ]
            }, 
            "properties": {
                "name": "Mali", 
                "nameofficial": "Republic of Mali"
            }, 
            "score": 4, 
            "type": "Feature", 
            "id": 101
        }, 
        {
            "index": 102, 
            "geometry": {
                "type": "Point", 
                "coordinates": [
                    14.43687877, 
                    35.89706403
                ]
            }, 
            "properties": {
                "name": "Malta", 
                "nameofficial": "Republic of Malta"
            }, 
            "score": 2, 
            "type": "Feature", 
            "id": 102
        }, 
        {
            "index": 103, 
            "geometry": {
                "type": "Point", 
                "coordinates": [
                    168.75512619, 
                    7.30130732
                ]
            }, 
            "properties": {
                "name": "Marshall Islands", 
                "nameofficial": "Republic of the Marshall Islands"
            }, 
            "score": 2, 
            "type": "Feature", 
            "id": 103
        }, 
        {
            "index": 104, 
            "geometry": {
                "type": "Point", 
                "coordinates": [
                    -10.21573334, 
                    20.28331239
                ]
            }, 
            "properties": {
                "name": "Mauritania", 
                "nameofficial": "Islamic Republic of Mauritania"
            }, 
            "score": 2, 
            "type": "Feature", 
            "id": 104
        }, 
        {
            "index": 105, 
            "geometry": {
                "type": "Point", 
                "coordinates": [
                    57.56588291, 
                    -20.28368188
                ]
            }, 
            "properties": {
                "name": "Mauritius", 
                "nameofficial": "Republic of Mauritius"
            }, 
            "score": 1, 
            "type": "Feature", 
            "id": 105
        }, 
        {
            "index": 106, 
            "geometry": {
                "type": "Point", 
                "coordinates": [
                    -102.33305344, 
                    22.92036676
                ]
            }, 
            "properties": {
                "name": "Mexico", 
                "nameofficial": "United Mexican States"
            }, 
            "score": 6, 
            "type": "Feature", 
            "id": 106
        }, 
        {
            "index": 108, 
            "geometry": {
                "type": "Point", 
                "coordinates": [
                    104.30808978, 
                    46.8055627
                ]
            }, 
            "properties": {
                "name": "Mongolia", 
                "nameofficial": "Mongolia"
            }, 
            "score": 3, 
            "type": "Feature", 
            "id": 108
        }, 
        {
            "index": 109, 
            "geometry": {
                "type": "Point", 
                "coordinates": [
                    19.09699321, 
                    42.7169959
                ]
            }, 
            "properties": {
                "name": "Montenegro", 
                "nameofficial": "Montenegro"
            }, 
            "score": 3, 
            "type": "Feature", 
            "id": 109
        }, 
        {
            "index": 110, 
            "geometry": {
                "type": "Point", 
                "coordinates": [
                    -7.26839325, 
                    31.95441758
                ]
            }, 
            "properties": {
                "name": "Morocco", 
                "nameofficial": "Kingdom of Morocco"
            }, 
            "score": 8, 
            "type": "Feature", 
            "id": 110
        }, 
        {
            "index": 111, 
            "geometry": {
                "type": "Point", 
                "coordinates": [
                    33.81570282, 
                    -19.07617816
                ]
            }, 
            "properties": {
                "name": "Mozambique", 
                "nameofficial": "Republic of Mozambique"
            }, 
            "score": 3, 
            "type": "Feature", 
            "id": 111
        }, 
        {
            "index": 112, 
            "geometry": {
                "type": "Point", 
                "coordinates": [
                    96.54949272, 
                    19.2098538
                ]
            }, 
            "properties": {
                "name": "Myanmar", 
                "nameofficial": "Union of Myanmar"
            }, 
            "score": 4, 
            "type": "Feature", 
            "id": 112
        }, 
        {
            "index": 113, 
            "geometry": {
                "type": "Point", 
                "coordinates": [
                    16.72161918, 
                    -22.7096562
                ]
            }, 
            "properties": {
                "name": "Namibia", 
                "nameofficial": "Republic of Namibia"
            }, 
            "score": 3, 
            "type": "Feature", 
            "id": 113
        }, 
        {
            "index": 115, 
            "geometry": {
                "type": "Point", 
                "coordinates": [
                    83.98119373, 
                    28.2843077
                ]
            }, 
            "properties": {
                "name": "Nepal", 
                "nameofficial": "Federal Democratic Republic of Nepal"
            }, 
            "score": 9, 
            "type": "Feature", 
            "id": 115
        }, 
        {
            "index": 116, 
            "geometry": {
                "type": "Point", 
                "coordinates": [
                    4.98914998, 
                    52.33939951
                ]
            }, 
            "properties": {
                "name": "Netherlands", 
                "nameofficial": "Kingdom of the Netherlands"
            }, 
            "score": 9, 
            "type": "Feature", 
            "id": 116
        }, 
        {
            "index": 117, 
            "geometry": {
                "type": "Point", 
                "coordinates": [
                    171.76586181, 
                    -40.95025298
                ]
            }, 
            "properties": {
                "name": "New Zealand", 
                "nameofficial": "New Zealand"
            }, 
            "score": 8, 
            "type": "Feature", 
            "id": 117
        }, 
        {
            "index": 118, 
            "geometry": {
                "type": "Point", 
                "coordinates": [
                    -84.82270352, 
                    12.91806226
                ]
            }, 
            "properties": {
                "name": "Nicaragua", 
                "nameofficial": "Republic of Nicaragua"
            }, 
            "score": 4, 
            "type": "Feature", 
            "id": 118
        }, 
        {
            "index": 119, 
            "geometry": {
                "type": "Point", 
                "coordinates": [
                    8.2354786, 
                    17.23446679
                ]
            }, 
            "properties": {
                "name": "Niger", 
                "nameofficial": "Republic of the Niger"
            }, 
            "score": 3, 
            "type": "Feature", 
            "id": 119
        }, 
        {
            "index": 120, 
            "geometry": {
                "type": "Point", 
                "coordinates": [
                    7.82933373, 
                    9.02165273
                ]
            }, 
            "properties": {
                "name": "Nigeria", 
                "nameofficial": "Federal Republic of Nigeria"
            }, 
            "score": 5, 
            "type": "Feature", 
            "id": 120
        }, 
        {
            "index": 121, 
            "geometry": {
                "type": "Point", 
                "coordinates": [
                    13.50069228, 
                    65.04680297
                ]
            }, 
            "properties": {
                "name": "Norway", 
                "nameofficial": "Kingdom of Norway"
            }, 
            "score": 9, 
            "type": "Feature", 
            "id": 121
        }, 
        {
            "index": 122, 
            "geometry": {
                "type": "Point", 
                "coordinates": [
                    56.69230596, 
                    20.69906846
                ]
            }, 
            "properties": {
                "name": "Oman", 
                "nameofficial": "Sultanate of Oman"
            }, 
            "score": 4, 
            "type": "Feature", 
            "id": 122
        }, 
        {
            "index": 123, 
            "geometry": {
                "type": "Point", 
                "coordinates": [
                    70.34487986, 
                    29.90335974
                ]
            }, 
            "properties": {
                "name": "Pakistan", 
                "nameofficial": "Islamic Republic of Pakistan"
            }, 
            "score": 9, 
            "type": "Feature", 
            "id": 123
        }, 
        {
            "index": 124, 
            "geometry": {
                "type": "Point", 
                "coordinates": [
                    134.57291496, 
                    7.49856307
                ]
            }, 
            "properties": {
                "name": "Palau", 
                "nameofficial": "Republic of Palau"
            }, 
            "score": 1, 
            "type": "Feature", 
            "id": 124
        }, 
        {
            "index": 125, 
            "geometry": {
                "type": "Point", 
                "coordinates": [
                    -80.04603702, 
                    8.52135102
                ]
            }, 
            "properties": {
                "name": "Panama", 
                "nameofficial": "Republic of Panama"
            }, 
            "score": 3, 
            "type": "Feature", 
            "id": 125
        }, 
        {
            "index": 126, 
            "geometry": {
                "type": "Point", 
                "coordinates": [
                    144.44993477, 
                    -6.62414046
                ]
            }, 
            "properties": {
                "name": "Papua New Guinea", 
                "nameofficial": "Papua New Guinea"
            }, 
            "score": 4, 
            "type": "Feature", 
            "id": 126
        }, 
        {
            "index": 127, 
            "geometry": {
                "type": "Point", 
                "coordinates": [
                    -58.29551057, 
                    -23.38564782
                ]
            }, 
            "properties": {
                "name": "Paraguay", 
                "nameofficial": "Republic of Paraguay"
            }, 
            "score": 5, 
            "type": "Feature", 
            "id": 127
        }, 
        {
            "index": 128, 
            "geometry": {
                "type": "Point", 
                "coordinates": [
                    -76.15772412, 
                    -8.50205247
                ]
            }, 
            "properties": {
                "name": "Peru", 
                "nameofficial": "Republic of Peru"
            }, 
            "score": 5, 
            "type": "Feature", 
            "id": 128
        }, 
        {
            "index": 129, 
            "geometry": {
                "type": "Point", 
                "coordinates": [
                    121.774017, 
                    12.823612
                ]
            }, 
            "properties": {
                "name": "Philippines", 
                "nameofficial": "Republic of the Philippines"
            }, 
            "score": 6, 
            "type": "Feature", 
            "id": 129
        }, 
        {
            "index": 130, 
            "geometry": {
                "type": "Point", 
                "coordinates": [
                    19.33190957, 
                    52.10117636
                ]
            }, 
            "properties": {
                "name": "Poland", 
                "nameofficial": "Republic of Poland"
            }, 
            "score": 10, 
            "type": "Feature", 
            "id": 130
        }, 
        {
            "index": 131, 
            "geometry": {
                "type": "Point", 
                "coordinates": [
                    -8.03768042, 
                    39.44879136
                ]
            }, 
            "properties": {
                "name": "Portugal", 
                "nameofficial": "Portuguese Republic"
            }, 
            "score": 9, 
            "type": "Feature", 
            "id": 131
        }, 
        {
            "index": 133, 
            "geometry": {
                "type": "Point", 
                "coordinates": [
                    25.21945155, 
                    45.56450023
                ]
            }, 
            "properties": {
                "name": "Romania", 
                "nameofficial": "Romania"
            }, 
            "score": 9, 
            "type": "Feature", 
            "id": 133
        }, 
        {
            "index": 134, 
            "geometry": {
                "type": "Point", 
                "coordinates": [
                    102.41837137, 
                    57.96812298
                ]
            }, 
            "properties": {
                "name": "Russia", 
                "nameofficial": "Russian Federation"
            }, 
            "score": 17, 
            "type": "Feature", 
            "id": 134
        }, 
        {
            "index": 135, 
            "geometry": {
                "type": "Point", 
                "coordinates": [
                    29.94255855, 
                    -1.98589079
                ]
            }, 
            "properties": {
                "name": "Rwanda", 
                "nameofficial": "Republic of Rwanda"
            }, 
            "score": 3, 
            "type": "Feature", 
            "id": 135
        }, 
        {
            "index": 136, 
            "geometry": {
                "type": "Point", 
                "coordinates": [
                    -62.76411725, 
                    17.33453669
                ]
            }, 
            "properties": {
                "name": "Saint Kitts And Nevis", 
                "nameofficial": "Saint Kitts And Nevis"
            }, 
            "score": 1, 
            "type": "Feature", 
            "id": 136
        }, 
        {
            "index": 138, 
            "geometry": {
                "type": "Point", 
                "coordinates": [
                    -61.197098, 
                    13.25276143
                ]
            }, 
            "properties": {
                "name": "Saint Vincent And The Grenadines", 
                "nameofficial": "Saint Vincent And The Grenadines"
            }, 
            "score": 2, 
            "type": "Feature", 
            "id": 138
        }, 
        {
            "index": 139, 
            "geometry": {
                "type": "Point", 
                "coordinates": [
                    -172.45207363, 
                    -13.57998954
                ]
            }, 
            "properties": {
                "name": "Samoa", 
                "nameofficial": "Independent State of Samoa"
            }, 
            "score": 2, 
            "type": "Feature", 
            "id": 139
        }, 
        {
            "index": 140, 
            "geometry": {
                "type": "Point", 
                "coordinates": [
                    12.457777, 
                    43.94223356
                ]
            }, 
            "properties": {
                "name": "San Marino", 
                "nameofficial": "Republic of San Marino"
            }, 
            "score": 1, 
            "type": "Feature", 
            "id": 140
        }, 
        {
            "index": 142, 
            "geometry": {
                "type": "Point", 
                "coordinates": [
                    42.88190638, 
                    24.16687314
                ]
            }, 
            "properties": {
                "name": "Saudi Arabia", 
                "nameofficial": "Kingdom of Saudi Arabia"
            }, 
            "score": 7, 
            "type": "Feature", 
            "id": 142
        }, 
        {
            "index": 143, 
            "geometry": {
                "type": "Point", 
                "coordinates": [
                    -14.68306489, 
                    14.43579003
                ]
            }, 
            "properties": {
                "name": "Senegal", 
                "nameofficial": "Republic of Senegal"
            }, 
            "score": 3, 
            "type": "Feature", 
            "id": 143
        }, 
        {
            "index": 144, 
            "geometry": {
                "type": "Point", 
                "coordinates": [
                    20.29725084, 
                    44.06736041
                ]
            }, 
            "properties": {
                "name": "Serbia", 
                "nameofficial": "Republic of Serbia"
            }, 
            "score": 7, 
            "type": "Feature", 
            "id": 144
        }, 
        {
            "index": 145, 
            "geometry": {
                "type": "Point", 
                "coordinates": [
                    55.49061371, 
                    -4.68053204
                ]
            }, 
            "properties": {
                "name": "Seychelles", 
                "nameofficial": "Republic of Seychelles"
            }, 
            "score": 1, 
            "type": "Feature", 
            "id": 145
        }, 
        {
            "index": 146, 
            "geometry": {
                "type": "Point", 
                "coordinates": [
                    -11.93368759, 
                    8.45575589
                ]
            }, 
            "properties": {
                "name": "Sierra Leone", 
                "nameofficial": "Republic of Sierra Leone"
            }, 
            "score": 2, 
            "type": "Feature", 
            "id": 146
        }, 
        {
            "index": 148, 
            "geometry": {
                "type": "Point", 
                "coordinates": [
                    19.75396564, 
                    48.66923253
                ]
            }, 
            "properties": {
                "name": "Slovakia", 
                "nameofficial": "Slovak Republic"
            }, 
            "score": 8, 
            "type": "Feature", 
            "id": 148
        }, 
        {
            "index": 149, 
            "geometry": {
                "type": "Point", 
                "coordinates": [
                    14.995463, 
                    46.14315048
                ]
            }, 
            "properties": {
                "name": "Slovenia", 
                "nameofficial": "Republic of Slovenia"
            }, 
            "score": 6, 
            "type": "Feature", 
            "id": 149
        }, 
        {
            "index": 150, 
            "geometry": {
                "type": "Point", 
                "coordinates": [
                    160.156194, 
                    -9.6455428
                ]
            }, 
            "properties": {
                "name": "Solomon Islands", 
                "nameofficial": "Solomon Islands"
            }, 
            "score": 1, 
            "type": "Feature", 
            "id": 150
        }, 
        {
            "index": 151, 
            "geometry": {
                "type": "Point", 
                "coordinates": [
                    45.27676444, 
                    2.87224619
                ]
            }, 
            "properties": {
                "name": "Somalia", 
                "nameofficial": "Somali Republic"
            }, 
            "score": 1, 
            "type": "Feature", 
            "id": 151
        }, 
        {
            "index": 152, 
            "geometry": {
                "type": "Point", 
                "coordinates": [
                    24.50856092, 
                    -27.17706863
                ]
            }, 
            "properties": {
                "name": "South Africa", 
                "nameofficial": "Republic of South Africa"
            }, 
            "score": 7, 
            "type": "Feature", 
            "id": 152
        }, 
        {
            "index": 153, 
            "geometry": {
                "type": "Point", 
                "coordinates": [
                    -3.67089492, 
                    39.87299401
                ]
            }, 
            "properties": {
                "name": "Spain", 
                "nameofficial": "Kingdom of Spain"
            }, 
            "score": 9, 
            "type": "Feature", 
            "id": 153
        }, 
        {
            "index": 154, 
            "geometry": {
                "type": "Point", 
                "coordinates": [
                    80.83772497, 
                    7.61264985
                ]
            }, 
            "properties": {
                "name": "Sri Lanka", 
                "nameofficial": "Democratic Socialist Republic of Sri  Lanka"
            }, 
            "score": 5, 
            "type": "Feature", 
            "id": 154
        }, 
        {
            "index": 155, 
            "geometry": {
                "type": "Point", 
                "coordinates": [
                    30.37145459, 
                    15.96646839
                ]
            }, 
            "properties": {
                "name": "Sudan", 
                "nameofficial": "Republic of the Sudan"
            }, 
            "score": 4, 
            "type": "Feature", 
            "id": 155
        }, 
        {
            "index": 156, 
            "geometry": {
                "type": "Point", 
                "coordinates": [
                    -55.93988238, 
                    4.26470865
                ]
            }, 
            "properties": {
                "name": "Suriname", 
                "nameofficial": "Republic of Suriname"
            }, 
            "score": 2, 
            "type": "Feature", 
            "id": 156
        }, 
        {
            "index": 157, 
            "geometry": {
                "type": "Point", 
                "coordinates": [
                    31.47960891, 
                    -26.5389257
                ]
            }, 
            "properties": {
                "name": "Swaziland", 
                "nameofficial": "Kingdom of Swaziland"
            }, 
            "score": 3, 
            "type": "Feature", 
            "id": 157
        }, 
        {
            "index": 158, 
            "geometry": {
                "type": "Point", 
                "coordinates": [
                    16.73188991, 
                    61.42370427
                ]
            }, 
            "properties": {
                "name": "Sweden", 
                "nameofficial": "Kingdom of Sweden"
            }, 
            "score": 10, 
            "type": "Feature", 
            "id": 158
        }, 
        {
            "index": 159, 
            "geometry": {
                "type": "Point", 
                "coordinates": [
                    8.227512, 
                    46.81010721
                ]
            }, 
            "properties": {
                "name": "Switzerland", 
                "nameofficial": "Swiss Confederation"
            }, 
            "score": 10, 
            "type": "Feature", 
            "id": 159
        }, 
        {
            "index": 160, 
            "geometry": {
                "type": "Point", 
                "coordinates": [
                    38.66723516, 
                    34.7109743
                ]
            }, 
            "properties": {
                "name": "Syria", 
                "nameofficial": "Syrian Arab Republic"
            }, 
            "score": 6, 
            "type": "Feature", 
            "id": 160
        }, 
        {
            "index": 161, 
            "geometry": {
                "type": "Point", 
                "coordinates": [
                    71.23215769, 
                    38.68075124
                ]
            }, 
            "properties": {
                "name": "Tajikistan", 
                "nameofficial": "Republic of Tajikistan"
            }, 
            "score": 5, 
            "type": "Feature", 
            "id": 161
        }, 
        {
            "index": 162, 
            "geometry": {
                "type": "Point", 
                "coordinates": [
                    101.38805881, 
                    14.6000981
                ]
            }, 
            "properties": {
                "name": "Thailand", 
                "nameofficial": "Kingdom of Thailand"
            }, 
            "score": 8, 
            "type": "Feature", 
            "id": 162
        }, 
        {
            "index": 163, 
            "geometry": {
                "type": "Point", 
                "coordinates": [
                    125.99671404, 
                    -8.88926365
                ]
            }, 
            "properties": {
                "name": "Timor-Leste", 
                "nameofficial": "Democratic Republic of Timor-Leste"
            }, 
            "score": 1, 
            "type": "Feature", 
            "id": 163
        }, 
        {
            "index": 164, 
            "geometry": {
                "type": "Point", 
                "coordinates": [
                    0.86049757, 
                    8.68089206
                ]
            }, 
            "properties": {
                "name": "Togo", 
                "nameofficial": "Togolese Republic"
            }, 
            "score": 2, 
            "type": "Feature", 
            "id": 164
        }, 
        {
            "index": 165, 
            "geometry": {
                "type": "Point", 
                "coordinates": [
                    -175.198242, 
                    -21.17890075
                ]
            }, 
            "properties": {
                "name": "Tonga", 
                "nameofficial": "Kingdom of Tonga"
            }, 
            "score": 2, 
            "type": "Feature", 
            "id": 165
        }, 
        {
            "index": 166, 
            "geometry": {
                "type": "Point", 
                "coordinates": [
                    -61.222503, 
                    10.43241863
                ]
            }, 
            "properties": {
                "name": "Trinidad And Tobago", 
                "nameofficial": "Republic of Trinidad And Tobago"
            }, 
            "score": 2, 
            "type": "Feature", 
            "id": 166
        }, 
        {
            "index": 167, 
            "geometry": {
                "type": "Point", 
                "coordinates": [
                    9.71878341, 
                    33.8843194
                ]
            }, 
            "properties": {
                "name": "Tunisia", 
                "nameofficial": "Republic of Tunisia"
            }, 
            "score": 7, 
            "type": "Feature", 
            "id": 167
        }, 
        {
            "index": 168, 
            "geometry": {
                "type": "Point", 
                "coordinates": [
                    36.28703317, 
                    38.27069555
                ]
            }, 
            "properties": {
                "name": "Turkey", 
                "nameofficial": "Republic of Turkey"
            }, 
            "score": 11, 
            "type": "Feature", 
            "id": 168
        }, 
        {
            "index": 169, 
            "geometry": {
                "type": "Point", 
                "coordinates": [
                    59.06190323, 
                    38.94915421
                ]
            }, 
            "properties": {
                "name": "Turkmenistan", 
                "nameofficial": "Turkmenistan"
            }, 
            "score": 4, 
            "type": "Feature", 
            "id": 169
        }, 
        {
            "index": 171, 
            "geometry": {
                "type": "Point", 
                "coordinates": [
                    32.44409759, 
                    1.5476062
                ]
            }, 
            "properties": {
                "name": "Uganda", 
                "nameofficial": "Republic of Uganda"
            }, 
            "score": 5, 
            "type": "Feature", 
            "id": 171
        }, 
        {
            "index": 172, 
            "geometry": {
                "type": "Point", 
                "coordinates": [
                    31.1051692, 
                    48.89358596
                ]
            }, 
            "properties": {
                "name": "Ukraine", 
                "nameofficial": "Ukraine"
            }, 
            "score": 9, 
            "type": "Feature", 
            "id": 172
        }, 
        {
            "index": 174, 
            "geometry": {
                "type": "Point", 
                "coordinates": [
                    -55.765833, 
                    -32.49342987
                ]
            }, 
            "properties": {
                "name": "Uruguay", 
                "nameofficial": "Eastern Republic of Uruguay"
            }, 
            "score": 7, 
            "type": "Feature", 
            "id": 174
        }, 
        {
            "index": 175, 
            "geometry": {
                "type": "Point", 
                "coordinates": [
                    62.6297096, 
                    41.30829147
                ]
            }, 
            "properties": {
                "name": "Uzbekistan", 
                "nameofficial": "Republic of Uzbekistan"
            }, 
            "score": 7, 
            "type": "Feature", 
            "id": 175
        }, 
        {
            "index": 176, 
            "geometry": {
                "type": "Point", 
                "coordinates": [
                    166.95916, 
                    -15.37256614
                ]
            }, 
            "properties": {
                "name": "Vanuatu", 
                "nameofficial": "Republic of Vanuatu"
            }, 
            "score": 2, 
            "type": "Feature", 
            "id": 176
        }, 
        {
            "index": 177, 
            "geometry": {
                "type": "Point", 
                "coordinates": [
                    107.14012804, 
                    17.19931699
                ]
            }, 
            "properties": {
                "name": "Vietnam", 
                "nameofficial": "Socialist Republic of Viet Nam"
            }, 
            "score": 5, 
            "type": "Feature", 
            "id": 177
        }, 
        {
            "index": 178, 
            "geometry": {
                "type": "Point", 
                "coordinates": [
                    47.60453676, 
                    15.60865453
                ]
            }, 
            "properties": {
                "name": "Yemen", 
                "nameofficial": "Republic of Yemen"
            }, 
            "score": 5, 
            "type": "Feature", 
            "id": 178
        }, 
        {
            "index": 179, 
            "geometry": {
                "type": "Point", 
                "coordinates": [
                    28.33274444, 
                    -13.01812188
                ]
            }, 
            "properties": {
                "name": "Zambia", 
                "nameofficial": "Republic of Zambia"
            }, 
            "score": 5, 
            "type": "Feature", 
            "id": 179
        }, 
        {
            "index": 180, 
            "geometry": {
                "type": "Point", 
                "coordinates": [
                    30.18758584, 
                    -19.00784952
                ]
            }, 
            "properties": {
                "name": "Zimbabwe", 
                "nameofficial": "Republic of Zimbabwe"
            }, 
            "score": 4, 
            "type": "Feature", 
            "id": 180
        }, 
        {
            "index": 181, 
            "geometry": {
                "type": "Point", 
                "coordinates": [
                    -159.777669, 
                    -21.23673066
                ]
            }, 
            "properties": {
                "name": "Cook Islands", 
                "nameofficial": "Cook Islands"
            }, 
            "score": 2, 
            "type": "Feature", 
            "id": 181
        }, 
        {
            "index": 186, 
            "geometry": {
                "type": "Point", 
                "coordinates": [
                    -2.72184767, 
                    53.36540813
                ]
            }, 
            "properties": {
                "name": "United Kingdom", 
                "nameofficial": "United Kingdom of Great Britain And Northern Ireland"
            }, 
            "score": 11, 
            "type": "Feature", 
            "id": 186
        }, 
        {
            "index": 192, 
            "geometry": {
                "type": "Point", 
                "coordinates": [
                    -169.86585571, 
                    -19.04976362
                ]
            }, 
            "properties": {
                "name": "Niue", 
                "nameofficial": "Niue"
            }, 
            "score": 2, 
            "type": "Feature", 
            "id": 192
        }, 
        {
            "index": 197, 
            "geometry": {
                "type": "Point", 
                "coordinates": [
                    -170.6950175, 
                    -14.30634641
                ]
            }, 
            "properties": {
                "name": "American Samoa", 
                "nameofficial": "The United States Territory of American Samoa"
            }, 
            "score": 1, 
            "type": "Feature", 
            "id": 197
        }, 
        {
            "index": 198, 
            "geometry": {
                "type": "Point", 
                "coordinates": [
                    -69.968338, 
                    12.52109661
                ]
            }, 
            "properties": {
                "name": "Aruba", 
                "nameofficial": "Aruba of the Kingdom of the Netherlands"
            }, 
            "score": 1, 
            "type": "Feature", 
            "id": 198
        }, 
        {
            "index": 199, 
            "geometry": {
                "type": "Point", 
                "coordinates": [
                    20.3591835, 
                    60.25403213
                ]
            }, 
            "properties": {
                "name": "\u00c5land Islands", 
                "nameofficial": "\u00c5land Islands"
            }, 
            "score": 3, 
            "type": "Feature", 
            "id": 199
        }, 
        {
            "index": 201, 
            "geometry": {
                "type": "Point", 
                "coordinates": [
                    -64.76182765, 
                    32.31995785
                ]
            }, 
            "properties": {
                "name": "Bermuda", 
                "nameofficial": "the Bermudas"
            }, 
            "score": 3, 
            "type": "Feature", 
            "id": 201
        }, 
        {
            "index": 204, 
            "geometry": {
                "type": "Point", 
                "coordinates": [
                    96.84689104, 
                    -12.12890685
                ]
            }, 
            "properties": {
                "name": "Cocos Islands", 
                "nameofficial": "Territory of Cocos (Keeling) Islands"
            }, 
            "score": 1, 
            "type": "Feature", 
            "id": 204
        }, 
        {
            "index": 205, 
            "geometry": {
                "type": "Point", 
                "coordinates": [
                    -69.02160369, 
                    12.20710309
                ]
            }, 
            "properties": {
                "name": "Cura\u00e7ao", 
                "nameofficial": "Cura\u00e7ao"
            }, 
            "score": 2, 
            "type": "Feature", 
            "id": 205
        }, 
        {
            "index": 206, 
            "geometry": {
                "type": "Point", 
                "coordinates": [
                    105.68083796, 
                    -10.49170619
                ]
            }, 
            "properties": {
                "name": "Christmas Island", 
                "nameofficial": "Territory of Christmas Island"
            }, 
            "score": 2, 
            "type": "Feature", 
            "id": 206
        }, 
        {
            "index": 208, 
            "geometry": {
                "type": "Point", 
                "coordinates": [
                    -59.523611, 
                    -51.78838251
                ]
            }, 
            "properties": {
                "name": "Falkland Islands (Malvinas)", 
                "nameofficial": "Falkland Islands"
            }, 
            "score": 1, 
            "type": "Feature", 
            "id": 208
        }, 
        {
            "index": 209, 
            "geometry": {
                "type": "Point", 
                "coordinates": [
                    -6.911804, 
                    61.88590482
                ]
            }, 
            "properties": {
                "name": "Faroe Islands", 
                "nameofficial": "Faroe Islands"
            }, 
            "score": 2, 
            "type": "Feature", 
            "id": 209
        }, 
        {
            "index": 210, 
            "geometry": {
                "type": "Point", 
                "coordinates": [
                    -52.97746057, 
                    4.01114381
                ]
            }, 
            "properties": {
                "name": "French Guiana", 
                "nameofficial": "French Guiana"
            }, 
            "score": 2, 
            "type": "Feature", 
            "id": 210
        }, 
        {
            "index": 211, 
            "geometry": {
                "type": "Point", 
                "coordinates": [
                    -2.585272, 
                    49.46565975
                ]
            }, 
            "properties": {
                "name": "Guernsey", 
                "nameofficial": "Bailiwick of Guernsey"
            }, 
            "score": 2, 
            "type": "Feature", 
            "id": 211
        }, 
        {
            "index": 212, 
            "geometry": {
                "type": "Point", 
                "coordinates": [
                    -5.34404779, 
                    36.14864641
                ]
            }, 
            "properties": {
                "name": "Gibraltar", 
                "nameofficial": "Gibraltar"
            }, 
            "score": 1, 
            "type": "Feature", 
            "id": 212
        }, 
        {
            "index": 213, 
            "geometry": {
                "type": "Point", 
                "coordinates": [
                    -34.38651956, 
                    71.42932629
                ]
            }, 
            "properties": {
                "name": "Greenland", 
                "nameofficial": "Greenland"
            }, 
            "score": 1, 
            "type": "Feature", 
            "id": 213
        }, 
        {
            "index": 214, 
            "geometry": {
                "type": "Point", 
                "coordinates": [
                    -61.550994, 
                    16.26472785
                ]
            }, 
            "properties": {
                "name": "Guadeloupe", 
                "nameofficial": "Department of Guadeloupe"
            }, 
            "score": 3, 
            "type": "Feature", 
            "id": 214
        }, 
        {
            "index": 215, 
            "geometry": {
                "type": "Point", 
                "coordinates": [
                    -36.67305304, 
                    -54.38130284
                ]
            }, 
            "properties": {
                "name": "South Georgia And The South Sandwich Islands", 
                "nameofficial": "South Georgia And the South Sandwich Islands"
            }, 
            "score": 2, 
            "type": "Feature", 
            "id": 215
        }, 
        {
            "index": 216, 
            "geometry": {
                "type": "Point", 
                "coordinates": [
                    144.80747791, 
                    13.44410137
                ]
            }, 
            "properties": {
                "name": "Guam", 
                "nameofficial": "Territory of Guam"
            }, 
            "score": 1, 
            "type": "Feature", 
            "id": 216
        }, 
        {
            "index": 217, 
            "geometry": {
                "type": "Point", 
                "coordinates": [
                    114.14657786, 
                    22.33728531
                ]
            }, 
            "properties": {
                "name": "Hong Kong", 
                "nameofficial": "Hong Kong Special Administrative Region of the People's Republic"
            }, 
            "score": 2, 
            "type": "Feature", 
            "id": 217
        }, 
        {
            "index": 219, 
            "geometry": {
                "type": "Point", 
                "coordinates": [
                    -4.548054, 
                    54.23562697
                ]
            }, 
            "properties": {
                "name": "Isle Of Man", 
                "nameofficial": "The Isle of Man"
            }, 
            "score": 3, 
            "type": "Feature", 
            "id": 219
        }, 
        {
            "index": 221, 
            "geometry": {
                "type": "Point", 
                "coordinates": [
                    -2.131246, 
                    49.21440771
                ]
            }, 
            "properties": {
                "name": "Jersey", 
                "nameofficial": "Bailiwick of Jersey"
            }, 
            "score": 2, 
            "type": "Feature", 
            "id": 221
        }, 
        {
            "index": 222, 
            "geometry": {
                "type": "Point", 
                "coordinates": [
                    -81.254598, 
                    19.31322102
                ]
            }, 
            "properties": {
                "name": "Cayman Islands", 
                "nameofficial": "The Cayman Islands"
            }, 
            "score": 1, 
            "type": "Feature", 
            "id": 222
        }, 
        {
            "index": 225, 
            "geometry": {
                "type": "Point", 
                "coordinates": [
                    145.6739, 
                    15.09783636
                ]
            }, 
            "properties": {
                "name": "Northern Mariana Islands", 
                "nameofficial": "Commonwealth of the Northern Mariana Islands"
            }, 
            "score": 2, 
            "type": "Feature", 
            "id": 225
        }, 
        {
            "index": 226, 
            "geometry": {
                "type": "Point", 
                "coordinates": [
                    -61.024176, 
                    14.64128045
                ]
            }, 
            "properties": {
                "name": "Martinique", 
                "nameofficial": "Department of Martinique"
            }, 
            "score": 3, 
            "type": "Feature", 
            "id": 226
        }, 
        {
            "index": 228, 
            "geometry": {
                "type": "Point", 
                "coordinates": [
                    165.5878376, 
                    -21.2610402
                ]
            }, 
            "properties": {
                "name": "New Caledonia", 
                "nameofficial": "Territory of New Caledonia And Dependencies"
            }, 
            "score": 5, 
            "type": "Feature", 
            "id": 228
        }, 
        {
            "index": 229, 
            "geometry": {
                "type": "Point", 
                "coordinates": [
                    167.94303023, 
                    -29.02801043
                ]
            }, 
            "properties": {
                "name": "Norfolk Island", 
                "nameofficial": "Norfolk Islands"
            }, 
            "score": 3, 
            "type": "Feature", 
            "id": 229
        }, 
        {
            "index": 230, 
            "geometry": {
                "type": "Point", 
                "coordinates": [
                    -149.406839, 
                    -17.66243898
                ]
            }, 
            "properties": {
                "name": "French Polynesia", 
                "nameofficial": "Territory of French Polynesia"
            }, 
            "score": 2, 
            "type": "Feature", 
            "id": 230
        }, 
        {
            "index": 233, 
            "geometry": {
                "type": "Point", 
                "coordinates": [
                    -66.590151, 
                    18.21963053
                ]
            }, 
            "properties": {
                "name": "Puerto Rico", 
                "nameofficial": "Commonwealth of Puerto Rico"
            }, 
            "score": 2, 
            "type": "Feature", 
            "id": 233
        }, 
        {
            "index": 235, 
            "geometry": {
                "type": "Point", 
                "coordinates": [
                    55.536382, 
                    -21.11480084
                ]
            }, 
            "properties": {
                "name": "R\u00e9union", 
                "nameofficial": "Department of Reunion"
            }, 
            "score": 5, 
            "type": "Feature", 
            "id": 235
        }, 
        {
            "index": 237, 
            "geometry": {
                "type": "Point", 
                "coordinates": [
                    18.99010622, 
                    77.92215764
                ]
            }, 
            "properties": {
                "name": "Svalbard And Jan Mayen", 
                "nameofficial": "Svalbard And Jan Mayen"
            }, 
            "score": 2, 
            "type": "Feature", 
            "id": 237
        }, 
        {
            "index": 240, 
            "geometry": {
                "type": "Point", 
                "coordinates": [
                    69.348563, 
                    -49.27235903
                ]
            }, 
            "properties": {
                "name": "French Southern Territories", 
                "nameofficial": "Territory of the French Southern And Antarctic Lands"
            }, 
            "score": 2, 
            "type": "Feature", 
            "id": 240
        }, 
        {
            "index": 244, 
            "geometry": {
                "type": "Point", 
                "coordinates": [
                    -102.3925645, 
                    37.66895362
                ]
            }, 
            "properties": {
                "name": "United States", 
                "nameofficial": "United States of America"
            }, 
            "score": 12, 
            "type": "Feature", 
            "id": 244
        }, 
        {
            "index": 245, 
            "geometry": {
                "type": "Point", 
                "coordinates": [
                    12.45340142, 
                    41.9037781
                ]
            }, 
            "properties": {
                "name": "Holy See (Vatican City State)", 
                "nameofficial": "Vatican City State"
            }, 
            "score": 1, 
            "type": "Feature", 
            "id": 245
        }, 
        {
            "index": 250, 
            "geometry": {
                "type": "Point", 
                "coordinates": [
                    30.15342434, 
                    7.91320803
                ]
            }, 
            "properties": {
                "name": "South Sudan", 
                "nameofficial": "Republic of South Sudan"
            }, 
            "score": 1, 
            "type": "Feature", 
            "id": 250
        }, 
        {
            "index": 251, 
            "geometry": {
                "type": "Point", 
                "coordinates": [
                    23.0418, 
                    16.5388
                ]
            }, 
            "properties": {
                "name": "Cape Verde", 
                "nameofficial": "Cabo Verde"
            }, 
            "score": 4, 
            "type": "Feature", 
            "id": 251
        }
    ], 
    "links": [
        {
            "source": 88, 
            "score": 10, 
            "target": 71
        }, 
        {
            "source": 191, 
            "score": 4, 
            "target": 20
        }, 
        {
            "source": 191, 
            "score": 6, 
            "target": 19
        }, 
        {
            "source": 191, 
            "score": 6, 
            "target": 25
        }, 
        {
            "source": 191, 
            "score": 4, 
            "target": 24
        }, 
        {
            "source": 191, 
            "score": 4, 
            "target": 21
        }, 
        {
            "source": 88, 
            "score": 6, 
            "target": 64
        }, 
        {
            "source": 39, 
            "score": 6, 
            "target": 162
        }, 
        {
            "source": 88, 
            "score": 10, 
            "target": 66
        }, 
        {
            "source": 88, 
            "score": 12, 
            "target": 65
        }, 
        {
            "source": 88, 
            "score": 12, 
            "target": 68
        }, 
        {
            "source": 88, 
            "score": 10, 
            "target": 69
        }, 
        {
            "source": 156, 
            "score": 4, 
            "target": 5
        }, 
        {
            "source": 105, 
            "score": 6, 
            "target": 182
        }, 
        {
            "source": 59, 
            "score": 8, 
            "target": 69
        }, 
        {
            "source": 105, 
            "score": 4, 
            "target": 178
        }, 
        {
            "source": 113, 
            "score": 6, 
            "target": 141
        }, 
        {
            "source": 113, 
            "score": 4, 
            "target": 144
        }, 
        {
            "source": 39, 
            "score": 4, 
            "target": 159
        }, 
        {
            "source": 113, 
            "score": 2, 
            "target": 138
        }, 
        {
            "source": 113, 
            "score": 2, 
            "target": 137
        }, 
        {
            "source": 69, 
            "score": 4, 
            "target": 60
        }, 
        {
            "source": 93, 
            "score": 2, 
            "target": 30
        }, 
        {
            "source": 69, 
            "score": 2, 
            "target": 54
        }, 
        {
            "source": 69, 
            "score": 2, 
            "target": 57
        }, 
        {
            "source": 32, 
            "score": 6, 
            "target": 45
        }, 
        {
            "source": 96, 
            "score": 2, 
            "target": 169
        }, 
        {
            "source": 96, 
            "score": 4, 
            "target": 168
        }, 
        {
            "source": 69, 
            "score": 4, 
            "target": 61
        }, 
        {
            "source": 34, 
            "score": 8, 
            "target": 195
        }, 
        {
            "source": 11, 
            "score": 4, 
            "target": 109
        }, 
        {
            "source": 11, 
            "score": 4, 
            "target": 110
        }, 
        {
            "source": 165, 
            "score": 6, 
            "target": 149
        }, 
        {
            "source": 165, 
            "score": 2, 
            "target": 150
        }, 
        {
            "source": 165, 
            "score": 4, 
            "target": 151
        }, 
        {
            "source": 165, 
            "score": 4, 
            "target": 152
        }, 
        {
            "source": 191, 
            "score": 4, 
            "target": 201
        }, 
        {
            "source": 191, 
            "score": 2, 
            "target": 200
        }, 
        {
            "source": 11, 
            "score": 4, 
            "target": 102
        }, 
        {
            "source": 11, 
            "score": 4, 
            "target": 103
        }, 
        {
            "source": 11, 
            "score": 4, 
            "target": 104
        }, 
        {
            "source": 11, 
            "score": 4, 
            "target": 105
        }, 
        {
            "source": 11, 
            "score": 4, 
            "target": 106
        }, 
        {
            "source": 11, 
            "score": 4, 
            "target": 107
        }, 
        {
            "source": 11, 
            "score": 4, 
            "target": 108
        }, 
        {
            "source": 121, 
            "score": 10, 
            "target": 15
        }, 
        {
            "source": 54, 
            "score": 2, 
            "target": 33
        }, 
        {
            "source": 121, 
            "score": 8, 
            "target": 13
        }, 
        {
            "source": 121, 
            "score": 4, 
            "target": 14
        }, 
        {
            "source": 121, 
            "score": 2, 
            "target": 12
        }, 
        {
            "source": 121, 
            "score": 14, 
            "target": 10
        }, 
        {
            "source": 54, 
            "score": 2, 
            "target": 27
        }, 
        {
            "source": 173, 
            "score": 2, 
            "target": 170
        }, 
        {
            "source": 7, 
            "score": 2, 
            "target": 33
        }, 
        {
            "source": 18, 
            "score": 4, 
            "target": 90
        }, 
        {
            "source": 32, 
            "score": 2, 
            "target": 98
        }, 
        {
            "source": 50, 
            "score": 4, 
            "target": 125
        }, 
        {
            "source": 18, 
            "score": 4, 
            "target": 86
        }, 
        {
            "source": 18, 
            "score": 4, 
            "target": 85
        }, 
        {
            "source": 18, 
            "score": 2, 
            "target": 84
        }, 
        {
            "source": 18, 
            "score": 4, 
            "target": 83
        }, 
        {
            "source": 100, 
            "score": 2, 
            "target": 28
        }, 
        {
            "source": 18, 
            "score": 4, 
            "target": 92
        }, 
        {
            "source": 18, 
            "score": 4, 
            "target": 91
        }, 
        {
            "source": 194, 
            "score": 4, 
            "target": 81
        }, 
        {
            "source": 25, 
            "score": 4, 
            "target": 194
        }, 
        {
            "source": 80, 
            "score": 4, 
            "target": 39
        }, 
        {
            "source": 25, 
            "score": 6, 
            "target": 195
        }, 
        {
            "source": 80, 
            "score": 8, 
            "target": 37
        }, 
        {
            "source": 167, 
            "score": 4, 
            "target": 177
        }, 
        {
            "source": 167, 
            "score": 2, 
            "target": 176
        }, 
        {
            "source": 35, 
            "score": 4, 
            "target": 20
        }, 
        {
            "source": 167, 
            "score": 4, 
            "target": 175
        }, 
        {
            "source": 167, 
            "score": 4, 
            "target": 174
        },